{
  "id": "jamsilsaenae",
  "name": "잠실새내",
  "station": "잠실새내역",
  "exit": "4번 출구",
  "route": {
    "steps": [
      "잠실새내역 4번 출구로 나와 먹자골목 안쪽 백제고분로7길 방향으로 먼저 들어갑니다.",
      "백제고분로7길 라인에서 엑스탑프라이즈스토어, 미니랜드, 안드로메다 잠실, 뽑고가냥 잠실새내점, 뿅뿅오락실, 코코스타디움을 먼저 훑습니다.",
      "이후 올림픽로12길 쪽 대빵인형뽑기 잠실새내점까지 보고, 돌아 나오면서 캑티 가챠샵 잠실새내점과 쥬쥬랜드를 같이 보면 동선이 자연스럽습니다."
    ],
    "totalDistance": "약 430m"
  },
  "spots": [
    {
      "name": "엑스탑프라이즈스토어",
      "size": "중형",
      "rating": 4.4,
      "address": "서울 송파구 백제고분로7길 53",
      "comment": "잠실새내 먹자골목 라인에서 먼저 체크하기 좋은 중형 매장입니다. 코스를 시작할 때 분위기 파악용으로 무난합니다.",
      "recommended": true,
      "lat": 37.51086,
      "lng": 127.084542
    },
    {
      "name": "미니랜드",
      "size": "소형",
      "rating": 4.0,
      "address": "서울 송파구 백제고분로7길 49 111호 미니랜드",
      "comment": "엑스탑프라이즈스토어와 붙여 보기 좋은 소형 매장입니다. 짧게 비교하기 좋습니다.",
      "recommended": false,
      "lat": 37.51086,
      "lng": 127.084542
    },
    {
      "name": "안드로메다 잠실",
      "size": "소형",
      "rating": 4.1,
      "address": "서울 송파구 백제고분로7길 49 1동 1층 110호",
      "comment": "같은 블록 안에서 함께 보기 좋은 소형 매장입니다. 메인 라인 체크용으로 무난합니다.",
      "recommended": false,
      "lat": 37.510858,
      "lng": 127.084451
    },
    {
      "name": "뽑고가냥 잠실새내점",
      "size": "소형",
      "rating": 4.2,
      "address": "서울 송파구 백제고분로7길 49 1층 103호",
      "comment": "먹자골목 메인 흐름에서 같이 보기 쉬운 소형 매장입니다. 짧게 둘러보기 좋습니다.",
      "recommended": false,
      "lat": 37.510888,
      "lng": 127.084105
    },
    {
      "name": "뿅뿅오락실",
      "size": "소형",
      "rating": 4.0,
      "address": "서울 송파구 백제고분로7길 46",
      "comment": "백제고분로7길 중간쯤에서 가볍게 붙여 보기 좋은 소형 매장입니다.",
      "recommended": false,
      "lat": 37.510768,
      "lng": 127.083778
    },
    {
      "name": "코코스타디움",
      "size": "중형",
      "rating": 4.3,
      "address": "서울 송파구 백제고분로7길 41 1층 102호",
      "comment": "잠실새내 메인 라인 안에서 비교적 존재감이 있는 중형 매장입니다. 중간 지점 기준점으로 보기 좋습니다.",
      "recommended": true,
      "lat": 37.510883,
      "lng": 127.08366
    },
    {
      "name": "대빵인형뽑기 잠실새내점",
      "size": "중형",
      "rating": 4.5,
      "address": "서울 송파구 올림픽로12길 8 1층 105호, 106호",
      "hours": "매일 09:00~24:00",
      "comment": "올림픽로12길 쪽 1층 라인에서 찾기 쉬운 대표 매장입니다. 잠실새내 코스 후반 핵심으로 보기 좋습니다.",
      "recommended": true,
      "lat": 37.510943,
      "lng": 127.082818
    },
    {
      "name": "캑티 가챠샵 잠실새내점",
      "size": "중형",
      "rating": 4.3,
      "address": "서울 송파구 백제고분로7길 24 1층",
      "comment": "가챠와 인형뽑기를 같이 보기 좋은 매장입니다. 2025년 인허가 공개 정보 기준 운영중으로 확인되는 잠실새내 대표 가챠·뽑기 복합 매장입니다.",
      "recommended": true,
      "lat": 37.510602,
      "lng": 127.081519
    },
    {
      "name": "쥬쥬랜드",
      "size": "소형",
      "rating": 3.9,
      "address": "서울특별시 송파구 백제고분로7길 20",
      "comment": "잠실새내 코스를 마무리하면서 가볍게 붙여 보기 좋은 소형 매장입니다.",
      "recommended": false,
      "lat": 37.510529,
      "lng": 127.081037
    }
  ]
}
