{
  "id": "yeonsinnae",
  "name": "연신내",
  "station": "연신내역",
  "exit": "6번 출구",
  "route": {
    "steps": [
      "연신내역 6번 출구에서 로데오거리 방향으로 들어가 캑티 가챠샵 연신내점을 먼저 확인합니다.",
      "이후 짱구게임장을 코스의 중심 매장으로 보고, 깡인형뽑기·슈퍼토이·블링팝·뽀꼬뽀꼬를 이어서 훑습니다.",
      "젬마게임은 다른 매장보다 약간 떨어져 있으므로 마지막에 붙이면 동선이 깔끔합니다."
    ],
    "totalDistance": "약 200~300m",
    "mapImage": "images/yeonsinnae-map.png",
    "shortsUrls": []
  },
  "spots": [
    {
      "name": "캑티 가챠샵 연신내점",
      "size": "중형",
      "rating": 4.3,
      "comment": "연신내역 6번 출구에서 로데오거리로 붙을 때 가장 먼저 보기 좋은 가챠샵입니다. 인형뽑기 코스를 시작하기 전에 작은 굿즈와 가챠를 먼저 훑기 좋습니다.",
      "recommended": true,
      "address": "서울 은평구 통일로 855-8 연신내진원와이타운 104~107호",
      "hours": "매일 09:00~24:00",
      "lat": 37.61897,
      "lng": 126.920242
    },
    {
      "name": "짱구게임장",
      "size": "대형",
      "rating": 4.7,
      "comment": "연신내 로데오거리에서 가장 규모감 있게 볼 만한 오락실입니다. 검색 정보에서도 연신내 오락실·인형뽑기 키워드로 확인되는 곳이라 코스의 중심으로 잡기 좋습니다.",
      "recommended": true,
      "address": "서울 은평구 연서로29길 8-8 인락빌딩",
      "lat": 37.619023,
      "lng": 126.919669
    },
    {
      "name": "깡인형뽑기 연신내점",
      "size": "중형",
      "rating": 4.2,
      "comment": "메인 동선에서 이어 보기 좋은 인형뽑기 중심 매장입니다.",
      "recommended": false,
      "lat": 37.618669,
      "lng": 126.919483
    },
    {
      "name": "슈퍼토이 연신내점",
      "size": "소형",
      "rating": 4,
      "comment": "작은 규모로 빠르게 들르기 좋고, 메인 거리에서 크게 벗어나지 않습니다.",
      "recommended": false,
      "lat": 37.618648,
      "lng": 126.91987
    },
    {
      "name": "블링팝",
      "size": "소형",
      "rating": 3.8,
      "comment": "짧게 체크하기 좋은 소형 매장으로 로데오거리 동선에 붙어 있습니다.",
      "recommended": false,
      "lat": 37.618546,
      "lng": 126.919798
    },
    {
      "name": "뽀꼬뽀꼬",
      "size": "소형",
      "rating": 3.7,
      "comment": "연신내 로데오거리 안쪽에 새로 생긴 소형 인형뽑기 매장입니다. 메인 동선 중간에서 가볍게 체크하기 좋습니다.",
      "recommended": false,
      "lat": 37.618736,
      "lng": 126.919643,
      "address": "서울특별시 은평구 연서로29길 6"
    },
    {
      "name": "젬마게임",
      "size": "소형",
      "rating": 3.8,
      "comment": "다른 매장들보다 약간 떨어져 있어 마지막에 붙이는 편이 자연스럽습니다. 로데오거리 코스를 다 본 뒤 여유가 있으면 내려가서 확인하기 좋습니다.",
      "recommended": false,
      "lat": 37.61791,
      "lng": 126.91957
    }
  ]
}
